,Unnamed: 0,Name,Acres Burned,Latitude,Longitude,Fire Started,Fire Extinguished
0,0,Aqueduct Fire,30.0,35.92436,-119.94083,2018-04-12,2019-01-03
2,2,Haycamp Fire,50.0,35.96689,-121.28185,2018-02-07,2019-01-03
3,3,Pleasant Fire,2070.0,37.40208,-118.50235,2018-02-18,2019-01-03
5,5,Grant Fire,12.0,37.73835,-121.6039,2018-05-14,2019-01-04
7,7,Patterson Fire,1261.0,33.62924,-117.05991999999999,2018-05-17,2019-01-04
8,8,Tyler Fire,15.0,33.711263,-116.16405800000001,2018-04-15,2019-01-03
9,9,Santa Cruz Fire,258.0,34.0232,-119.76576000000001,2018-03-27,2019-01-03
10,10,Rock Fire,11.0,40.4635,-121.77418999999999,2018-03-27,2019-01-03
11,11,Meadow Fire,21.0,33.86439,-117.48143999999999,2018-04-09,2019-01-03
12,12,Volcan Fire,12.0,33.12213,-116.58758999999999,2018-05-10,2019-01-04
13,13,Shastina Fire,127.0,41.65935,-122.48556,2018-05-09,2019-01-04
14,14,Lago Fire,18.0,33.887440000000005,-117.16232,2018-04-22,2019-01-03
15,15,French Fire,20.0,39.89075,-120.18498999999998,2018-04-26,2019-01-04
16,16,Happy Fire,60.0,34.74245,-120.18236,2018-05-17,2019-01-04
17,17,Jacques Fire,18.0,33.40178,-117.27467,2018-05-09,2019-01-04
18,18,Alpha Fire,300.0,33.389425,-117.50240500000001,2018-05-04,2019-01-04
19,19,Nees Fire,1756.0,36.85156,-120.77206000000001,2018-05-02,2019-01-04
20,20,Tornado Fire,70.0,33.504964,-117.148204,2018-05-04,2019-01-04
21,21,Woodchuck Fire,15.0,33.467999,-117.00382900000001,2018-05-04,2019-01-04
22,22,Moffat Fire,1265.0,36.71537,-118.08448999999999,2018-04-19,2019-01-03
23,23,Grape Fire,0.0,40.70258,-123.55011999999999,2018-04-24,2019-01-03
24,24,Main Fire,73.0,33.67815,-117.32281,2018-04-28,2019-01-04
25,25,White Fire,26.0,35.826333,-118.9821,2018-05-18,2019-01-04
26,26,Jelly Fire,103.0,40.31759,-122.21032,2018-05-18,2019-01-04
27,27,Ager Fire,27.0,41.791859,-122.513883,2018-05-19,2019-01-04
28,28,Plaza Fire,88.0,37.056944,-121.01638,2018-05-20,2019-01-04
29,29,Bellagio Fire,12.0,38.16303,-122.23058999999999,2018-05-21,2019-01-04
30,30,Agua Fire,59.0,33.35505,-117.03133999999999,2018-05-22,2019-01-04
31,31,Experimental Fire,56.0,37.0979,-119.75307,2018-05-23,2019-01-04
32,32,Water Fire,100.0,35.56922,-120.12441000000001,2018-05-24,2019-01-04
33,33,Cobble Fire,108.0,36.75581,-119.42172,2018-05-26,2019-01-04
34,34,Keeler Fire,16.0,37.21803,-121.76828,2018-05-27,2019-01-04
35,35,70th Fire,10.0,33.53924,-116.10231,2018-05-28,2019-01-04
36,36,Chrome Fire,75.0,39.65578,-122.58666000000001,2018-05-28,2019-01-04
37,37,Stuhr Fire,63.0,37.32744,-121.10903,2018-05-29,2019-01-04
38,38,Vineyard Fire,25.0,35.71859,-120.64028,2018-05-29,2019-01-04
39,39,Grant Fire,484.0,37.75375,-121.57918000000001,2018-05-30,2019-01-04
40,40,Madison FIre,14.0,38.64953,-122.01762,2018-06-01,2019-01-04
41,41,Open Fire,127.0,39.46543,-122.65581999999999,2018-06-01,2019-01-04
42,42,Plymire Fire,23.0,40.201826000000004,-122.29388,2018-06-01,2019-01-04
43,43,Glen Fire,23.0,37.99113,-121.86473000000001,2018-06-02,2019-01-04
44,44,Aliso Fire,175.0,33.551320000000004,-117.72044,2018-06-02,2019-01-04
45,45,Jardin Fire,10.0,33.450140000000005,-117.22215,2018-06-02,2019-01-04
46,46,Coldwell Fire,13.0,36.10499,-120.55323999999999,2018-06-02,2019-01-04
47,47,Black Fire,10.0,39.80827,-122.3307,2018-06-03,2019-01-04
48,48,Grande Fire,11.0,33.47413,-117.31468000000001,2018-06-03,2019-01-04
49,49,Ethanac Fire,17.0,33.742,-117.28188999999999,2018-06-03,2019-01-04
50,50,Fairview Fire,35.0,36.83036,-121.36446000000001,2018-06-03,2019-01-04
51,51,Resort Fire,12.0,35.75737,-120.91793,2018-06-03,2019-01-04
52,52,Martin Fire,37.0,41.58233,-122.33769,2018-06-03,2019-01-04
53,53,Adobe Fire,38.0,32.78031,-117.06782,2018-06-03,2019-01-04
54,54,Green Fire,10.0,32.75072,-116.92403999999999,2018-06-03,2019-01-04
55,55,Stone Fire,1352.0,34.5486,-118.31138,2018-06-04,2019-01-04
56,56,Meamber Fire,12.0,41.64805,-122.98442,2018-06-04,2019-01-04
57,57,Airline Fire,1314.0,36.40755,-120.99322,2018-06-04,2019-01-04
58,58,Eastern Fire,513.0,36.378333000000005,-120.90116699999999,2018-06-04,2019-01-04
59,59,ONeals Fire,300.0,37.10181,-119.623981,2018-06-04,2019-01-04
60,60,Panoche Fire,64.0,36.64832,-121.03253000000001,2018-06-04,2019-01-04
61,61,Pallet Fire,10.0,38.245151,-122.44408,2018-06-05,2019-01-04
62,62,Vista Fire,12.0,33.40769,-117.22973999999999,2018-06-05,2019-01-04
63,63,Recycle Fire,265.0,32.63046,-116.46673999999999,2018-06-06,2019-01-04
64,64,Liberty Fire,62.0,38.24033,-121.09199,2018-06-11,2019-01-04
65,65,Bear Fire,200.0,37.339240000000004,-120.24315,2018-06-07,2019-01-04
66,66,Apple Fire,2956.0,39.94355,-122.3571,2018-06-09,2019-01-04
67,67,Chrome Fire,2290.0,39.64978,-122.58218000000001,2018-06-09,2019-01-04
68,68,Mission Fire,12.0,37.97638,-122.5275,2018-06-09,2019-01-04
69,69,South Fire,175.0,37.97638,-122.5275,2018-06-09,2019-01-04
70,70,Sam Fire,96.0,35.9352,-121.11936000000001,2018-06-09,2019-01-04
71,71,Beaver Fire,215.0,36.37532,-120.862579,2018-06-12,2019-01-04
72,72,Vista Fire,60.0,35.663607,-120.67031100000001,2018-06-13,2019-01-04
73,73,Santiago Fire,155.0,33.787838,-117.746625,2018-06-11,2019-01-04
74,74,Euclid Fire,154.0,33.925862,-117.654299,2018-06-12,2019-01-04
75,75,Portola Fire ,20.0,34.110516,-118.42788600000002,2018-06-12,2019-01-04
76,76,Spring Fire,70.0,40.394073,-122.135924,2018-06-13,2019-01-04
77,77,Bridle Fire,20.0,33.524412,-116.821724,2018-06-14,2019-01-04
78,78,70 Fire,20.0,39.602703000000005,-121.617698,2018-06-14,2019-01-04
79,79,Creston FIre,60.0,35.58354,-120.62413500000001,2018-06-14,2019-01-04
80,80,Tumbleweed Fire,646.0,40.3768,-120.36403,2018-06-14,2019-01-04
81,81,Planada Fire,4564.0,37.393390000000004,-120.34206999999999,2018-06-15,2019-01-04
82,82,Raymond Fire,60.0,37.14663,-119.91223000000001,2018-06-15,2019-01-04
83,83,Boyer Fire,53.0,37.47677,-119.84298999999999,2018-06-15,2019-01-04
84,84,Oregon Fire,40.0,39.549167,-121.521111,2018-06-16,2019-01-04
85,85,Creek Fire,32.0,38.886518,-122.476381,2018-06-16,2019-01-04
86,86,Willow Fire,25.0,38.015322999999995,-121.998967,2018-06-16,2019-01-04
87,87,China Fire,17.0,38.265645,-120.892404,2018-06-17,2019-01-04
88,88,Upper Colony Fire,1202.0,38.834395,-119.41674599999999,2018-06-17,2019-01-04
89,89,Vallecitos Fire,20.0,37.627119,-121.806775,2018-06-17,2019-01-04
90,90,Dinosaur Fire,185.0,37.05876,-121.176354,2018-06-17,2019-01-04
91,91,Wheeler Fire,115.0,37.707234,-120.19916200000002,2018-06-18,2019-01-04
92,92,Iron Fire,40.0,37.779209,-121.908976,2018-06-19,2019-01-04
93,93,Ranchita Fire,10.0,35.77017,-120.57833000000001,2018-06-19,2019-01-04
94,94,Yankee Fire,1500.0,35.736290000000004,-120.75593,2018-06-20,2019-01-04
95,95,Creek Fire,10.0,35.05747,-120.39295,2018-06-21,2019-01-04
96,96,Bascom Fire,328.0,40.529090000000004,-122.17456999999999,2018-06-23,2019-01-04
97,97,Lane Fire,3716.0,40.35068,-121.77866999999999,2018-06-23,2019-01-04
98,98,Sierra Fire,170.0,40.12791,-122.19792,2018-06-23,2019-01-04
99,99,Stoll Fire,268.0,40.18395,-122.27573999999998,2018-06-23,2019-01-04
100,100,Pawnee Fire,15185.0,39.0674,-122.59848000000001,2018-06-23,2019-01-04
101,101,Canyon Fire,62.0,34.53765,-118.75495,2018-06-23,2019-01-04
102,102,Stony Fire,75.0,39.2976,-122.51201200000001,2018-07-04,2019-01-04
103,103,Sheep Fire,95.0,35.1234,-118.72905,2018-06-29,2019-01-04
104,104,Creek Fire,1678.0,40.50318,-122.42308,2018-06-24,2019-01-04
105,105,Flat Fire,163.0,37.80785,-120.30187,2018-06-24,2019-01-04
106,106,Horse Fire,80.0,37.95766,-120.68902,2018-06-24,2019-01-04
107,107,Romero Fire,68.0,37.08529,-121.09353999999999,2018-06-24,2019-01-04
108,108,Peach Fire ,90.0,39.038859,-123.38493000000001,2018-07-05,2019-01-04
109,109,Waverly Fire,12300.0,38.052054999999996,-120.94548200000001,2018-06-29,2019-01-04
110,110,Llano Fire,10.0,39.6139,-121.954098,2018-06-29,2019-01-04
111,111,Flat Fire,300.0,40.60402,-122.9144,2018-06-28,2019-01-04
112,112,San Ardo,375.0,35.95515,-120.86256000000002,2018-06-26,2019-06-21
113,113,Lions Fire,4064.0,37.571,-119.118,2018-06-11,2019-01-04
114,114,Anchor Fire,76.0,36.696878999999996,-119.30449899999999,2018-06-27,2019-01-04
115,115,Shippee Fire,347.0,39.59872,-121.78208000000001,2018-06-26,2019-01-04
116,116,Fox Fire,260.0,35.33916,-120.71488000000001,2018-06-26,2019-01-04
117,117,Hyatt Fire,441.0,40.316137,-120.45053,2018-06-27,2019-01-04
118,118,Cherry Fire,63.0,41.83359,-122.99271999999999,2018-06-27,2019-01-04
119,119,Par Fire,191.0,39.491737,-121.637759,2018-07-04,2019-01-04
120,120,Grant Fire,30.0,38.595865,-121.17693,2018-06-29,2019-01-04
121,121,Valley Fire,268.0,37.947140000000005,-121.9921,2018-06-29,2019-01-04
122,122,Tesla Fire,70.0,37.660740000000004,-121.67143999999999,2018-06-29,2019-01-04
123,123,Creek Fire,33.0,34.17711,-117.15381000000001,2018-06-30,2019-01-04
124,124,County Fire,90288.0,38.80583,-122.18183,2018-06-30,2019-01-04
125,125,Benton Fire,63.0,33.56349,-116.732032,2018-07-04,2019-01-04
126,126,Lariat Fire,33.0,40.00293,-122.44008000000001,2018-07-14,2019-01-04
127,127,School Fire,12.0,37.227909999999994,-119.50461000000001,2018-07-10,2019-01-04
128,128,Petersburg Fire,215.0,41.085,-123.051,2018-07-01,2019-01-04
129,129,West Fire,504.0,32.833674,-116.7311,2018-07-06,2019-01-04
130,130,Buckingham Fire,45.0,37.86339,-122.12351000000001,2018-07-02,2019-01-04
131,131,Building Fire,10.0,32.619855,-116.764733,2018-07-06,2019-01-04
132,132,Shingle Fire,316.0,38.539806,-121.059979,2018-07-04,2019-01-04
133,133,Klamathon Fire,38008.0,41.893332,-122.534655,2018-07-05,2019-01-04
134,134,Irish Fire,825.0,38.42623,-120.95408,2018-07-06,2019-01-04
135,135,Valley Fire,1350.0,34.095568,-116.95880600000001,2018-07-06,2019-01-04
136,136,Eagle Fire,2100.0,41.29363,-120.11461000000001,2018-07-13,2019-01-04
137,137,Holiday Fire,113.0,34.463889,-119.83138899999999,2018-07-06,2019-01-04
138,138,Bridle Fire,116.0,37.06367,-121.53586000000001,2018-07-06,2019-01-04
139,139,Stoney Fire,962.0,39.77124,-121.76858999999999,2018-07-12,2019-01-04
140,140,Gray Fire,12.0,34.171786,-117.35606000000001,2018-07-13,2019-01-04
141,141,Ferguson Fire,96901.0,37.6549,-119.88581,2018-07-13,2019-01-04
142,142,Lebec Fire,62.0,34.86022,-118.87881000000002,2018-07-08,2019-01-04
143,143,Dark Fire,11.0,39.66492,-121.51772,2018-07-10,2019-01-04
144,144,Curie Fire,70.0,37.22545,-121.79189,2018-07-10,2019-01-04
145,145,Hale Fire,51.0,37.163594,-121.702547,2018-07-10,2019-01-04
146,146,Kelley Fire,52.0,41.50105,-120.61108,2018-07-14,2019-01-04
147,147,Panoche Fire,278.0,36.65351,-121.0454,2018-07-11,2019-01-04
148,148,Georges Fire,2883.0,36.6734,-118.21881,2018-07-08,2019-01-04
149,149,Vista Fire,31.0,40.62693,-122.23449,2018-07-08,2019-01-04
150,150,Bruce Fire,56.0,37.79718,-121.85311000000002,2018-07-08,2019-01-04
151,151,Grant Fire,640.0,37.75646,-121.60646000000001,2018-07-08,2019-01-04
152,152,James Loop Fire,280.0,39.053909999999995,-119.82242,2018-07-09,2019-01-04
153,153,Box Fire,100.0,34.22526,-117.40966999999999,2018-07-06,2019-01-04
154,154,Cornerstone Fire,11.0,37.198170000000005,-119.80413999999999,2018-07-09,2019-01-04
155,155,Spring 2 Fire,80.0,39.06715,-122.59788999999999,2018-07-09,2019-01-04
156,156,Dale Fire,856.0,40.33682,-121.93908,2018-07-09,2019-01-04
157,157,Idria Fire,116.0,36.59036,-120.82355,2018-07-12,2019-01-04
158,158,3-2 Fire,14.0,39.99309,-120.02136999999999,2018-07-14,2019-01-04
159,159,Steamboat Fire,224.0,41.70877,-122.47293,2018-07-15,2019-01-04
160,160,3-10 Fire,56.0,40.95234,-121.21597,2018-07-15,2019-01-04
161,161,Johnson Fire,16.0,41.34453,-123.85404,2018-07-15,2019-01-04
163,163,3-18 Fire,32.0,41.08583,-121.05722,2018-07-15,2019-01-04
164,164,3-16 Fire,89.0,40.946659999999994,-121.27049,2018-07-15,2019-01-04
165,165,Tuscan Fire,50.0,40.27754,-122.11375,2018-07-15,2019-01-04
166,166,Mill Creek 1 Fire,3674.0,41.079440000000005,-123.688056,2018-08-16,2019-01-04
167,167,Camp Fire,14.0,35.70086,-120.97339,2018-07-17,2019-01-04
168,168,Border Fire,28.0,32.557565999999994,-116.8663,2018-07-17,2019-01-04
169,169,Lott Fire,10.0,41.632373,-122.37985,2018-07-17,2019-01-04
170,170,Cruces Fire,77.0,34.54305556,-120.31805556,2018-07-18,2019-01-04
171,171,Eighty Eight Fire,822.0,38.59694444,-121.99388889,2018-07-18,2019-01-04
172,172,Simmons Fire,43.0,39.57202,-121.43131000000001,2018-07-19,2019-01-04
173,173,Ben Fire,40.0,37.28365,-119.97546000000001,2018-07-19,2019-01-04
174,174,Cinnamon Fire,13.0,33.04898,-116.78928,2018-07-20,2019-01-04
175,175,Skyline Fire,282.0,33.836101,-117.607577,2018-07-19,2019-01-04
176,176,Highland Fire,63.0,40.741186,-122.649626,2018-07-20,2019-01-04
177,177,Windmill Fire,110.0,34.62412,-120.22298,2018-07-20,2019-01-04
178,178,Carder Fire,50.0,38.91152,-122.86854,2018-07-21,2019-01-04
179,179,Rock Fire,30.0,35.685390000000005,-120.95156999999999,2018-07-21,2019-01-04
180,180,Mustang Fire,37.0,35.64917,-120.71907,2018-07-21,2019-01-04
181,181,Country Fire,320.0,37.449425,-121.88807,2018-07-22,2019-01-04
182,182,Heart Fire,67.0,39.279833,-123.258319,2018-07-21,2019-01-04
183,183,Horse Creek Fire,34.0,36.42638,-118.70443,2018-07-19,2019-01-04
184,184,Carr Fire,229651.0,40.65428,-122.62357,2018-07-23,2019-01-04
185,185,Pico Fire,128.0,34.380390000000006,-118.60441000000002,2018-07-23,2019-01-04
186,186,Martinez Fire,40.0,33.56921,-116.154398,2018-07-23,2019-01-04
187,187,Ridge Fire,36.0,38.981389,-122.97222,2018-09-02,2019-01-04
188,188,Crestline Fire,51.0,40.824,-121.90215,2018-07-24,2019-01-04
189,189,Roxie Fire (Formerly 1-1 Fire),167.0,40.34822,-120.82497,2018-07-24,2019-01-04
190,190,Church Fire,20.0,37.07793,-121.600023,2018-07-25,2019-01-04
192,192,Marsh Fire,247.0,37.89612,-121.85847,2018-07-25,2019-01-04
193,193,Hidden Fire,39.0,36.796,-121.40603999999999,2018-07-25,2019-01-04
194,194,Patterson Fire,34.0,37.711729999999996,-121.55604,2018-07-25,2019-01-04
195,195,Western Fire,106.0,38.8802,-123.0496,2018-08-01,2019-01-04
196,196,Pasqual Fire,365.0,33.078920000000004,-116.91845,2018-07-27,2019-01-04
197,197,Ribbon Fire,205.0,33.571763,-116.50005800000001,2018-07-26,2019-01-04
198,198,Parrots Fire,136.0,38.08424,-120.46078,2018-08-05,2019-01-04
199,199,Wagner Fire,22.0,37.69965,-120.0545,2018-08-04,2019-01-04
200,200,Creek Fire,30.0,37.533026,-121.79733,2018-08-04,2019-01-04
201,201,Tarina Fire,2950.0,35.37444,-118.83556000000002,2018-08-03,2019-01-04
202,202,Ranch Fire (Mendocino Complex),410203.0,39.243283,-123.10336699999999,2018-07-27,2019-01-04
203,203,Balch Fire,100.0,36.21634,-118.82988999999999,2018-07-27,2019-01-04
204,204,River Fire (Mendocino Complex),48920.0,39.04786,-123.11971000000001,2018-07-27,2019-01-04
205,205,Breckenridge Fire,993.0,35.387408,-118.81793400000001,2018-07-27,2019-01-04
206,206,Whaleback Fire,18703.0,40.633536,-120.86809099999999,2018-07-27,2019-01-04
207,207,Natchez Fire,38134.0,41.95113,-123.54642,2018-07-15,2019-01-04
208,208,Donnell Fire,36450.0,38.349000000000004,-119.929,2018-08-01,2019-01-04
209,209,Owens Fire,338.0,37.735461,-118.97044299999999,2018-07-31,2019-01-04
210,210,Sobrante Fire,30.0,33.85852,-117.43521000000001,2018-07-28,2019-01-04
211,211,Rock Fire,207.0,33.41476,-117.24043999999999,2018-07-28,2019-01-04
212,212,Butte Fire,1200.0,39.186144,-121.79288500000001,2018-07-31,2019-01-04
213,213,Steele Fire,135.0,38.51943,-122.18353,2018-07-28,2019-01-04
214,214,Eel Fire,972.0,39.82877,-123.08488999999999,2018-07-31,2019-01-04
215,215,Corner Fire,35.0,40.95673,-121.6002,2018-07-29,2019-01-04
216,216,Reservoir Fire,51.0,35.30151,-120.64398,2018-09-16,2019-01-04
217,217,Casner Fire,14.0,33.05737,-116.77153999999999,2018-08-06,2019-01-04
218,218,Bumper Fire,67.0,38.645,-120.87416699999999,2018-08-01,2019-01-04
219,219,Omega Fire,66.0,38.82128,-121.03918,2018-08-01,2019-01-04
220,220,Sunset Fire,700.0,38.824259999999995,-121.451307,2018-08-01,2019-01-04
221,221,Turkey Fire,2225.0,35.847778000000005,-120.343056,2018-08-06,2019-01-04
222,222,Holy Fire,23136.0,33.698879999999996,-117.52055,2018-08-06,2019-01-04
223,223,Terra Fire,35.0,33.759722,-117.460278,2018-08-06,2019-01-04
224,224,South Fire,290.0,38.061298,-120.872244,2018-08-06,2019-01-04
225,225,Murphy Fire,117.0,39.996944,-121.27,2018-08-07,2019-01-04
226,226,Five Fire,2995.0,35.97896,-119.98329,2018-08-06,2019-01-04
227,227,Bridge Fire,45.0,38.07135,-122.76751000000002,1969-12-31,2019-01-04
228,228,Pine Fire,114.0,35.56888889,-118.80138889,2018-08-16,2019-01-04
229,229,Hirz Fire,46150.0,40.896,-122.219,2018-08-09,2019-01-04
230,230,Land Fire,23.0,33.946896,-117.066643,2018-08-22,2019-01-04
231,231,Rangeland Fire,250.0,33.076239,-116.90298500000002,2018-08-09,2019-01-04
232,232,Hat Fire,1900.0,40.99344,-121.52225,2018-08-09,2019-01-04
233,233,Syar Fire,10.0,38.272290000000005,-122.26388999999999,2018-08-09,2019-01-04
234,234,Alhambra Fire,30.0,37.996179999999995,-122.14097,2018-08-17,2019-01-04
235,235,Snell Fire,2490.0,38.69601,-122.44468,2018-09-08,2019-01-04
236,236,Nelson Fire,2162.0,38.431278000000006,-122.043747,2018-08-10,2019-01-04
237,237,Marcel Fire,34.0,35.17156,-118.51651000000001,2018-08-17,2019-01-04
238,238,Oak Fire,16.0,39.10494,-121.07038999999999,2018-08-12,2019-01-04
239,239,Cloverdale Fire,100.0,33.0971179,-117.02425290000001,2018-08-13,2019-01-04
240,240,Gulch Fire,650.0,36.00912,-120.82226000000001,2018-08-11,2019-01-04
241,241,River Fire,668.0,35.79012,-118.7393,2018-08-15,2019-01-04
242,242,Stone Fire,39387.0,41.38544,-121.04386000000001,2018-08-15,2019-01-04
243,243,Castro Fire,48.0,37.699259999999995,-122.02805,2018-08-26,2019-01-04
244,244,Call Fire,367.0,35.51777778,-118.6525,2018-08-18,2019-01-04
245,245,Gorge Fire,155.0,40.36888889,-122.89055556,2018-08-19,2019-01-04
246,246,Front Fire,1014.0,35.11416667,-120.09222222,2018-08-19,2019-01-04
247,247,Keller Fire,10.0,33.627006,-117.17173100000001,2018-08-19,2019-01-04
248,248,Eastman Fire,289.0,37.197039000000004,-120.002619,2018-08-23,2019-01-04
249,249,Country Fire,32.0,33.97902,-117.20533999999999,2018-08-25,2019-01-04
250,250,Redinger Fire,88.0,37.179167,-119.43166699999999,2018-08-27,2019-01-04
251,251,Cache Fire,103.0,39.02017,-122.57496,2018-08-26,2019-01-04
252,252,Winchester Fire,36.0,33.640051,-117.08535400000001,2018-08-27,2019-01-04
253,253,Fork Fire,166.0,34.2325,-117.84611100000001,2018-09-09,2019-01-04
254,254,Grade Fire,60.0,38.8275,-122.3625,2018-08-30,2019-01-04
255,255,Ogilvy Fire,172.0,34.576944,-119.61416000000001,2018-09-01,2019-01-04
256,256,Essex Fire,15.0,41.521229999999996,-120.72362,2018-09-02,2019-01-04
257,257,Sterling,125.0,34.15475,-117.24436599999999,2018-08-31,2019-01-04
258,258,Delta Fire,63311.0,40.9425,-122.43,2018-09-05,2019-01-04
259,259,Kelsey Fire,24.0,38.918420000000005,-122.85276,2018-09-03,2019-01-04
260,260,North Fire,1120.0,39.268611,-120.65833300000001,2018-09-03,2019-01-04
261,261,Sliger Fire,150.0,38.94388,-120.92611000000001,2018-09-04,2019-01-04
262,262,Ranchera Fire,13.0,40.678889,-122.40055600000001,2018-09-04,2019-01-04
263,263,Tulloch Fire,573.0,37.83388,-120.61746000000001,2018-09-08,2019-01-04
264,264,Kerlin Fire,1751.0,40.616251,-123.52018999999999,2018-09-04,2019-01-04
265,265,Boot Fire,6974.0,38.347395,-119.45186000000001,2018-09-04,2019-01-04
266,266,Metz Fire,400.0,36.35502,-121.1563,2018-09-13,2019-01-04
267,267,Irving Fire,152.0,38.02447,-122.727,2018-09-10,2019-01-04
268,268,Water Fire,200.0,34.91482,-118.92485,2018-09-12,2019-01-04
269,269,Soboba Fire,25.0,33.80406,-116.93188,2018-09-14,2019-01-04
270,270,Meyers Fire,12.0,38.7448,-120.65671999999999,2018-09-20,2019-01-04
271,271,Charlie Fire,3380.0,34.48229,-118.60858,2018-09-22,2019-01-04
272,272,Oak Fire,360.0,37.387890000000006,-119.68911999999999,2018-09-22,2019-01-04
273,273,Copper Fire,53.0,40.336420000000004,-120.93005,2018-09-22,2019-01-04
274,274,Wilson Fire,261.0,40.34256,-121.43025,2018-09-28,2019-01-04
275,275,Silver Fire,76.0,40.5939,-122.17173000000001,2018-09-28,2019-01-04
276,276,Quimby Fire,30.0,37.33563,-121.75815,2018-09-23,2019-01-04
277,277,Nimshew Fire,33.0,39.84151,-121.62168,2018-09-24,2019-01-04
278,278,Shandon Fire,80.0,-120.258,-120.258,2018-09-29,2019-01-04
279,279,Keenbrook Fire,53.0,34.24138,-117.42431,2018-09-26,2019-01-04
280,280,Nacimiento Fire,150.0,35.97677,-121.24898,2018-10-02,2019-01-04
281,281,Eagle Fire,32.0,36.938674,-119.3127769,2018-10-02,2019-01-04
282,282,Sun Fire,3889.0,40.22027778,-122.18,2018-10-07,2019-01-04
283,283,Park Fire,63.0,37.1769444,-121.68694444,2018-10-07,2019-01-04
284,284,Iron Gate Fire,15.0,41.940459999999995,-122.43933,2018-10-10,2019-01-04
286,286,Winters Fire,160.0,38.45673,-121.94658000000001,2018-10-12,2019-01-04
287,287,Priest Fire,167.0,36.18401,-120.69955,2018-10-13,2019-01-04
288,288,Tower Fire,12.0,40.496179999999995,-122.51597,2018-10-14,2019-01-04
289,289,Masonic Fire,38.0,40.60866,-122.38366,2018-10-14,2019-01-04
290,290,Powellton Fire,10.0,39.93427,-121.54103,2018-10-15,2019-01-04
291,291,Camino Fire,58.0,35.17693,-120.48861000000001,2018-10-19,2019-01-04
292,292,Market Fire,120.0,36.47766,-119.10433,2018-10-24,2019-01-04
293,293,June Fire,550.0,39.36529,-121.51706999999999,2018-10-30,2019-01-04
294,294,Rincon Fire,17.0,37.0125,-122.046,2018-11-03,2019-01-04
295,295,Brushy Fire,35.0,39.62194,-123.28773999999999,2018-11-08,2019-01-04
296,296,Camp Fire,153336.0,39.8134,-121.4347,2018-11-08,2018-11-25
297,297,Adams Fire,60.0,40.346652,-122.308479,2018-11-05,2019-01-04
298,298,Horn Fire,88.0,40.83116,-120.19336000000001,2018-11-08,2019-01-04
299,299,Nurse Fire,1500.0,38.21396,-121.9424,2018-11-08,2019-01-04
300,300,Hill Fire,4531.0,34.22685,-118.93444,2018-11-08,2019-01-04
301,301,Woolsey Fire,96949.0,34.235,-118.70128000000001,2018-11-08,2019-01-04
302,302,Honey Flooding,0.0,39.71217,-121.77385,2018-11-29,2019-01-04
303,303,Morgan Fire,20.0,37.81111,-121.7944,2018-11-15,2019-01-04
304,304,Green Hill Fire,10.0,40.888785,-124.00184899999999,2018-11-12,2019-01-04
305,305,Sierra Fire,147.0,34.18075,-117.43184,2018-11-13,2019-01-04
306,306,Niles Fire,20.0,37.61158,-121.94181999999999,2018-11-14,2019-01-04
307,307,Briggs Fire,150.0,34.30166667,-119.09916667,2018-11-15,2019-01-04
308,308,Peak Fire,186.0,34.26734825,-118.64381589,2018-11-12,2019-01-04
309,309,Bear Fire ,10.0,37.12857,-122.12036,2018-11-16,2019-01-04
